city,population,lat,lon,region_name,federal_district
Алейск,29.0,52.4922513,82.7793606,Алтайский край,Сибирский
Барнаул,632.4,53.3479968,83.7798064,Алтайский край,Сибирский
Белокуриха,15.2,51.996152,84.9839604,Алтайский край,Сибирский
Бийск,199.5,52.5393864,85.2138453,Алтайский край,Сибирский
Горняк,12.3,50.9979622,81.4643358,Алтайский край,Сибирский
Заринск,45.9,53.7063476,84.9315081,Алтайский край,Сибирский
Змеиногорск,10.2,51.1581094,82.1872547,Алтайский край,Сибирский
Камень-на-Оби,40.5,53.7913974,81.3545053,Алтайский край,Сибирский
Новоалтайск,74.6,53.4119759,83.9311069,Алтайский край,Сибирский
Рубцовск,141.6,51.5012067,81.2078695,Алтайский край,Сибирский
Славгород,29.1,52.999463,78.6459232,Алтайский край,Сибирский
Яровое,18.1,52.9252146,78.5729775,Алтайский край,Сибирский
Белогорск,65.3,50.9213415,128.4739471,Амурская область,Дальневосточный
Благовещенск,226.4,50.290659,127.527198,Амурская область,Дальневосточный
Завитинск,10.2,50.1064111,129.4391813,Амурская область,Дальневосточный
Зея,23.0,53.7340088,127.265787,Амурская область,Дальневосточный
Райчихинск,16.8,49.7941615,129.4112492,Амурская область,Дальневосточный
Свободный,54.0,51.3614103,128.1219729,Амурская область,Дальневосточный
Сковородино,8.9,53.9871095,123.9437205,Амурская область,Дальневосточный
Тында,33.2,55.1546441,124.7468904,Амурская область,Дальневосточный
Циолковский,7.2,51.762481,128.1219846,Амурская область,Дальневосточный
Шимановск,18.6,52.0051886,127.7005458,Амурская область,Дальневосточный
Архангельск,347.0,64.5394289,40.5169606,Архангельская область,Северо-Западный
Вельск,22.3,61.066,42.1032789,Архангельская область,Северо-Западный
Каргополь,10.0,61.5009724,38.9636966,Архангельская область,Северо-Западный
Коряжма,35.7,61.2885948,47.1003015,Архангельская область,Северо-Западный
Котлас,62.0,61.2528972,46.633242,Архангельская область,Северо-Западный
Мезень,3.2,65.8398078,44.2532273,Архангельская область,Северо-Западный
Мирный,32.9,62.7645265,40.3360076,Архангельская область,Северо-Западный
Нарьян-Мар,25.1,67.63777777777779,53.00666666666667,Архангельская область,Северо-Западный
Новодвинск,37.7,64.4136851,40.8208143,Архангельская область,Северо-Западный
Няндома,19.1,61.6654674,40.2062947,Архангельская область,Северо-Западный
Онега,18.5,63.9162928,38.0805031,Архангельская область,Северо-Западный
Северодвинск,182.0,64.5625385,39.8180934,Архангельская область,Северо-Западный
Сольвычегодск,1.9,61.3319616,46.920441,Архангельская область,Северо-Западный
Шенкурск,4.7,62.1057272,42.8996973,Архангельская область,Северо-Западный
Астрахань,529.8,46.3655652,48.0559236,Астраханская область,Южный
Ахтубинск,36.5,48.2752034,46.1906462,Астраханская область,Южный
Знаменск,26.7,48.5866291,45.7368019,Астраханская область,Южный
Камызяк,15.7,46.110579,48.07333,Астраханская область,Южный
Нариманов,10.8,46.6916565,47.8502476,Астраханская область,Южный
Харабали,17.5,47.408999,47.2525345,Астраханская область,Южный
Алексеевка,37.8,50.6299647,38.6880342,Белгородская область,Центральный
Белгород,394.1,50.5976472,36.5856652,Белгородская область,Центральный
Бирюч,7.5,50.6484585,38.4005083,Белгородская область,Центральный
Валуйки,34.2,50.2111207,38.0998772,Белгородская область,Центральный
Грайворон,6.5,50.4862958,35.6663877,Белгородская область,Центральный
Губкин,86.2,51.2837123,37.5347759,Белгородская область,Центральный
Короча,5.8,50.8129041,37.1896436,Белгородская область,Центральный
Новый Оскол,18.5,50.7633747,37.8775484,Белгородская область,Центральный
Старый Оскол,223.9,51.2967101,37.8350182,Белгородская область,Центральный
Строитель,24.1,50.7845099,36.4887648,Белгородская область,Центральный
Шебекино,40.9,50.4004883,36.8877889,Белгородская область,Центральный
Брянск,402.7,53.2419535,34.3652146,Брянская область,Центральный
Дятьково,26.2,53.5958178,34.3551812,Брянская область,Центральный
Жуковка,16.4,53.5340397,33.7302579,Брянская область,Центральный
Злынка,5.3,52.4267015,31.7360399,Брянская область,Центральный
Карачев,17.2,53.1296524,34.9888727,Брянская область,Центральный
Клинцы,63.0,52.7529119,32.233911,Брянская область,Центральный
Мглин,7.1,53.0599771,32.8468129,Брянская область,Центральный
Новозыбков,39.5,52.537173,31.9357991,Брянская область,Центральный
Почеп,16.4,52.9154851,33.4744058,Брянская область,Центральный
Севск,6.6,52.1483358,34.4918415,Брянская область,Центральный
Сельцо,16.4,53.3739884,34.1059172,Брянская область,Центральный
Стародуб,18.2,52.5852257,32.760403,Брянская область,Центральный
Сураж,10.7,53.0170888,32.3938878,Брянская область,Центральный
Трубчевск,13.6,52.5791734,33.7660547,Брянская область,Центральный
Унеча,22.8,52.8461199,32.6757629,Брянская область,Центральный
Фокино,12.8,53.4554145,34.4159238,Брянская область,Центральный
Александров,57.9,56.391819,38.7111123,Владимирская область,Центральный
Владимир,356.9,56.1280804,40.4084376,Владимирская область,Центральный
Вязники,34.5,56.29773,42.2687398,Владимирская область,Центральный
Гороховец,12.6,56.2021036,42.6926111,Владимирская область,Центральный
Гусь-Хрустальный,52.8,55.6198751,40.6579929,Владимирская область,Центральный
Камешково,12.0,56.3490152,40.9955183,Владимирская область,Центральный
Карабаново,14.9,56.3131822,38.7034257,Владимирская область,Центральный
Киржач,26.7,56.1486863,38.8635701,Владимирская область,Центральный
Ковров,135.7,56.3554349,41.3170576,Владимирская область,Центральный
Кольчугино,42.0,56.3327254,39.391336,Владимирская область,Центральный
Костерево,8.1,55.9337222,39.6247398,Владимирская область,Центральный
Курлово,5.8,55.452698,40.6124108,Владимирская область,Центральный
Лакинск,14.1,56.0180587,39.956551,Владимирская область,Центральный
Меленки,13.5,55.3387515,41.6340046,Владимирская область,Центральный
Муром,107.0,55.5630311,42.0231362,Владимирская область,Центральный
Петушки,12.5,55.9298134,39.4508075,Владимирская область,Центральный
Покров,16.7,55.9166398,39.1734526,Владимирская область,Центральный
Радужный,18.3,55.9960277,40.3321855,Владимирская область,Центральный
Собинка,17.3,55.9939169,40.0179653,Владимирская область,Центральный
Струнино,12.9,56.3749967,38.5839667,Владимирская область,Центральный
Судогда,10.1,55.9498056,40.8562939,Владимирская область,Центральный
Суздаль,9.6,56.4274441,40.4525692,Владимирская область,Центральный
Юрьев-Польский,18.1,56.4937757,39.6680539,Владимирская область,Центральный
Волгоград,1009.0,48.7070042,44.5170339,Волгоградская область,Южный
Волжский,323.9,48.7978209,44.7462538,Волгоградская область,Южный
Дубовка,13.7,49.0554742,44.8270085,Волгоградская область,Южный
Жирновск,15.5,50.9768814,44.7858202,Волгоградская область,Южный
Калач-на-Дону,23.6,48.6889024,43.5306303,Волгоградская область,Южный
Камышин,109.9,50.0651529,45.3844202,Волгоградская область,Южный
Котельниково,20.4,47.6310259,43.1330872,Волгоградская область,Южный
Котово,21.4,50.3205766,44.8030699,Волгоградская область,Южный
Краснослободск,17.1,48.7068721,44.5630857,Волгоградская область,Южный
Ленинск,14.4,48.6936061,45.1992692,Волгоградская область,Южный
Михайловка,57.4,50.0708719,43.2401512,Волгоградская область,Южный
Николаевск,13.4,50.0165306,45.4731658,Волгоградская область,Южный
Новоаннинский,15.9,50.5296067,42.6666439,Волгоградская область,Южный
Палласовка,14.5,50.0500944,46.8804277,Волгоградская область,Южный
Петров Вал,12.4,50.1380557,45.20914,Волгоградская область,Южный
Серафимович,8.6,49.5663183,42.7360402,Волгоградская область,Южный
Суровикино,18.2,48.618917,42.8541163,Волгоградская область,Южный
Урюпинск,36.7,50.7903789,42.0288513,Волгоградская область,Южный
Фролово,36.2,49.7649148,43.6648641,Волгоградская область,Южный
Бабаево,11.4,59.3892583,35.9377058,Вологодская область,Северо-Западный
Белозерск,8.6,60.0308381,37.7890586,Вологодская область,Северо-Западный
Великий Устюг,31.0,60.7603913,46.3054414,Вологодская область,Северо-Западный
Вологда,310.3,59.2483905,39.8355662,Вологодская область,Северо-Западный
Вытегра,10.2,61.0063465,36.4495137,Вологодская область,Северо-Западный
Грязовец,14.8,58.8757553,40.2485362,Вологодская область,Северо-Западный
Кадников,4.5,59.5037764,40.3441148,Вологодская область,Северо-Западный
Кириллов,7.5,59.8591523,38.3748782,Вологодская область,Северо-Западный
Красавино,5.9,60.9612823,46.4814116,Вологодская область,Северо-Западный
Никольск,7.9,59.5351837,45.4576137,Вологодская область,Северо-Западный
Сокол,36.4,59.4758605,40.1114187,Вологодская область,Северо-Западный
Тотьма,9.7,59.9734998,42.7589506,Вологодская область,Северо-Западный
Устюжна,8.4,58.8383117,36.4425478,Вологодская область,Северо-Западный
Харовск,8.8,59.9479423,40.2000298,Вологодская область,Северо-Западный
Череповец,314.8,59.1269212,37.9090497,Вологодская область,Северо-Западный
Бобров,20.0,51.0901649,40.0318256,Воронежская область,Центральный
Богучар,11.0,49.9352454,40.5590801,Воронежская область,Центральный
Борисоглебск,59.9,51.3655754,42.1008334,Воронежская область,Центральный
Бутурлиновка,24.0,50.8311818,40.5976923,Воронежская область,Центральный
Воронеж,1058.3,51.6593332,39.1969229,Воронежская область,Центральный
Калач,18.2,50.4242134,41.0162014,Воронежская область,Центральный
Лиски,53.5,50.9945626,39.5184909,Воронежская область,Центральный
Нововоронеж,31.5,51.3091524,39.2162843,Воронежская область,Центральный
Новохоперск,5.9,51.0952211,41.6173404,Воронежская область,Центральный
Острогожск,31.8,50.8677905,39.0407746,Воронежская область,Центральный
Павловск,24.5,50.453455,40.136874,Воронежская область,Центральный
Поворино,16.7,51.1954419,42.2472726,Воронежская область,Центральный
Россошь,62.6,50.1701949,39.6226965,Воронежская область,Центральный
Семилуки,27.0,51.6951644,39.0190454,Воронежская область,Центральный
Эртиль,10.1,51.830932,40.8074182,Воронежская область,Центральный
Биробиджан,71.8,48.7946446,132.9217207,Еврейская автономная область,Дальневосточный
Облучье,8.4,49.0189345,131.0540102,Еврейская автономная область,Дальневосточный
Балей,10.7,51.5823759,116.6379549,Забайкальский край,Дальневосточный
Борзя,29.2,50.3876058,116.5234779,Забайкальский край,Дальневосточный
Краснокаменск,51.4,50.0929703,118.0323936,Забайкальский край,Дальневосточный
Могоча,13.0,53.7361398,119.7660867,Забайкальский край,Дальневосточный
Нерчинск,14.7,51.9594977,116.5852383,Забайкальский край,Дальневосточный
Петровск-Забайкальский,15.8,51.2748592,108.846681,Забайкальский край,Дальневосточный
Сретенск,6.4,52.2461454,117.7117842,Забайкальский край,Дальневосточный
Хилок,10.3,51.3634856,110.4590898,Забайкальский край,Дальневосточный
Чита,351.8,52.0340142,113.4994,Забайкальский край,Дальневосточный
Шилка,12.5,51.8497035,116.0334461,Забайкальский край,Дальневосточный
Вичуга,33.3,57.2044698,41.9132201,Ивановская область,Центральный
Гаврилов Посад,5.6,56.5586946,40.1228906,Ивановская область,Центральный
Заволжск,9.6,57.4918141,42.1375625,Ивановская область,Центральный
Иваново,404.6,56.9993792,40.9728272,Ивановская область,Центральный
Кинешма,81.0,57.4425463,42.168914,Ивановская область,Центральный
Комсомольск,8.0,57.0273052,40.3776851,Ивановская область,Центральный
Кохма,30.2,56.9324606,41.0931657,Ивановская область,Центральный
Наволоки,9.1,57.4679066,41.9608002,Ивановская область,Центральный
Плес,1.7,57.4606031,41.5122672,Ивановская область,Центральный
Приволжск,15.3,57.3805743,41.2808565,Ивановская область,Центральный
Пучеж,6.3,56.9820688,43.1683321,Ивановская область,Центральный
Родники,23.9,57.1025975,41.7298834,Ивановская область,Центральный
Тейково,31.8,56.8542719,40.5353874,Ивановская область,Центральный
Фурманов,33.2,57.2539276,41.1054432,Ивановская область,Центральный
Шуя,57.0,56.8560234,41.3800939,Ивановская область,Центральный
Южа,12.2,56.5926877,42.0458099,Ивановская область,Центральный
Юрьевец,7.9,57.3177781,43.1110401,Ивановская область,Центральный
Алзамай,5.7,55.5551233,98.6643699,Иркутская область,Сибирский
Ангарск,224.6,52.544879,103.888543,Иркутская область,Сибирский
Байкальск,12.5,51.5230393,104.1487532,Иркутская область,Сибирский
Бирюсинск,8.4,55.9609167,97.8205348,Иркутская область,Сибирский
Бодайбо,12.0,57.8468636,114.1866287,Иркутская область,Сибирский
Братск,226.3,56.1513108,101.6340035,Иркутская область,Сибирский
Вихоревка,20.8,56.1208145,101.1702926,Иркутская область,Сибирский
Железногорск-Илимский,22.9,56.5847888,104.114275,Иркутская область,Сибирский
Зима,30.5,53.920693,102.0491772,Иркутская область,Сибирский
Иркутск,623.6,52.2864036,104.2807466,Иркутская область,Сибирский
Киренск,11.0,57.7756595,108.1109412,Иркутская область,Сибирский
Нижнеудинск,33.6,54.8968931,99.0314056,Иркутская область,Сибирский
Саянск,38.8,54.1107238,102.18015,Иркутская область,Сибирский
Свирск,12.7,53.0842668,103.3364093,Иркутская область,Сибирский
Слюдянка,18.2,51.6563983,103.7187545,Иркутская область,Сибирский
Тайшет,32.7,55.9405334,98.0030145,Иркутская область,Сибирский
Тулун,39.7,54.557162,100.5780603,Иркутская область,Сибирский
Усолье-Сибирское,76.0,52.7565808,103.6388109,Иркутская область,Сибирский
Усть-Илимск,80.4,57.9430504,102.7415734,Иркутская область,Сибирский
Усть-Кут,40.8,56.7928178,105.7757343,Иркутская область,Сибирский
Черемхово,50.1,53.1369095,103.0901268,Иркутская область,Сибирский
Шелехов,48.4,52.2102538,104.0973294,Иркутская область,Сибирский
Баксан,38.5,43.6819137,43.5345036,Кабардино-Балкарская Республика,Северо-Кавказский
Майский,26.7,43.6281516,44.0517314,Кабардино-Балкарская Республика,Северо-Кавказский
Нальчик,239.6,43.4845464,43.60713,Кабардино-Балкарская Республика,Северо-Кавказский
Нарткала,30.6,43.5578075,43.8575925,Кабардино-Балкарская Республика,Северо-Кавказский
Прохладный,58.2,43.7589602,44.0102409,Кабардино-Балкарская Республика,Северо-Кавказский
Терек,19.5,43.4839358,44.1402161,Кабардино-Балкарская Республика,Северо-Кавказский
Тырныауз,20.6,43.3981585,42.9213582,Кабардино-Балкарская Республика,Северо-Кавказский
Чегем,18.4,43.5671525,43.5865792,Кабардино-Балкарская Республика,Северо-Кавказский
Багратионовск,6.4,54.3866518,20.6418091,Калининградская область,Северо-Западный
Балтийск,33.7,54.6513372,19.9140572,Калининградская область,Северо-Западный
Гвардейск,13.3,54.6588378,21.0501388,Калининградская область,Северо-Западный
Гурьевск,19.3,54.770638,20.6039767,Калининградская область,Северо-Западный
Гусев,28.5,54.5915455,22.1942445,Калининградская область,Северо-Западный
Зеленоградск,16.5,54.9600185,20.4753652,Калининградская область,Северо-Западный
Калининград,489.3,54.7074702,20.5073241,Калининградская область,Северо-Западный
Краснознаменск,3.1,54.9453423,22.4928745,Калининградская область,Северо-Западный
Ладушкин,3.9,54.5692156,20.1690153,Калининградская область,Северо-Западный
Мамоново,8.0,54.4646036,19.9453482,Калининградская область,Северо-Западный
Неман,10.8,55.0316524,22.0324064,Калининградская область,Северо-Западный
Нестеров,3.9,54.6313814,22.5713736,Калининградская область,Северо-Западный
Озерск,3.8,54.4084705,22.0134438,Калининградская область,Северо-Западный
Пионерский,12.2,54.9516574,20.2277424,Калининградская область,Северо-Западный
Полесск,6.9,54.8625126,21.0998067,Калининградская область,Северо-Западный
Правдинск,4.0,54.4430986,21.0085269,Калининградская область,Северо-Западный
Приморск,1.9,54.7311437,19.9981926,Калининградская область,Северо-Западный
Светлогорск,15.2,54.9439286,20.1514295,Калининградская область,Северо-Западный
Светлый,21.6,54.6772897,20.1357595,Калининградская область,Северо-Западный
Славск,4.0,55.0449714,21.6742367,Калининградская область,Северо-Западный
Советск,39.0,55.0809336,21.8886106,Калининградская область,Северо-Западный
Черняховск,35.4,54.6244751,21.7969062,Калининградская область,Северо-Западный
Балабаново,25.6,55.1773714,36.6566951,Калужская область,Центральный
Белоусово,10.2,55.0956803,36.677629,Калужская область,Центральный
Боровск,10.3,55.2130096,36.4926251,Калужская область,Центральный
Ермолино,10.1,55.1971758,36.5952722,Калужская область,Центральный
Жиздра,5.4,53.7521926,34.7386592,Калужская область,Центральный
Жуков,13.7,55.0301833,36.7394903,Калужская область,Центральный
Калуга,332.0,54.5059848,36.2516245,Калужская область,Центральный
Киров,29.9,54.0790111,34.3076201,Калужская область,Центральный
Козельск,16.4,54.0347201,35.780768,Калужская область,Центральный
Кондрово,14.6,54.7959473,35.9274842,Калужская область,Центральный
Кременки,10.3,54.8862447,37.1168701,Калужская область,Центральный
Людиново,37.3,53.8700828,34.4385915,Калужская область,Центральный
Малоярославец,27.8,55.0177123,36.4633603,Калужская область,Центральный
Медынь,8.2,54.9689785,35.8872168,Калужская область,Центральный
Мещовск,3.8,54.3191471,35.2816918,Калужская область,Центральный
Мосальск,4.2,54.4824939,34.9872239,Калужская область,Центральный
Обнинск,117.4,55.0943144,36.6121639,Калужская область,Центральный
Сосенский,10.4,54.0566016,35.9621646,Калужская область,Центральный
Спас-Деменск,4.3,54.409922,34.0189631,Калужская область,Центральный
Сухиничи,14.8,54.097296,35.3443568,Калужская область,Центральный
Таруса,9.2,54.7236477,37.1671,Калужская область,Центральный
Юхнов,5.8,54.7446445,35.2424346,Калужская область,Центральный
Вилючинск,22.2,52.9302415,158.4057632,Камчатский край,Дальневосточный
Елизово,39.3,53.1830375,158.3883548,Камчатский край,Дальневосточный
Петропавловск-Камчатский,179.6,53.036908,158.6559254,Камчатский край,Дальневосточный
Карачаевск,20.8,43.7732525,41.9143472,Карачаево-Черкесская Республика,Северо-Кавказский
Теберда,8.6,43.4437731,41.7415142,Карачаево-Черкесская Республика,Северо-Кавказский
Усть-Джегута,30.6,44.0838442,41.9711046,Карачаево-Черкесская Республика,Северо-Кавказский
Черкесск,123.2,44.2269425,42.0466704,Карачаево-Черкесская Республика,Северо-Кавказский
Анжеро-Судженск,68.1,56.0786281,86.0201278,Кемеровская область - Кузбасс,Сибирский
Белово,71.2,54.4220968,86.3037373,Кемеровская область - Кузбасс,Сибирский
Березовский,45.6,55.6693513,86.2744459,Кемеровская область - Кузбасс,Сибирский
Гурьевск,22.4,54.2859263,85.9475985,Кемеровская область - Кузбасс,Сибирский
Калтан,20.4,53.5210919,87.2771636,Кемеровская область - Кузбасс,Сибирский
Кемерово,556.4,55.3910651,86.0467781,Кемеровская область - Кузбасс,Сибирский
Киселевск,86.6,54.0059999,86.6366116,Кемеровская область - Кузбасс,Сибирский
Ленинск-Кузнецкий,94.4,54.6674492,86.1797324,Кемеровская область - Кузбасс,Сибирский
Мариинск,37.9,56.2127383,87.7454924,Кемеровская область - Кузбасс,Сибирский
Междуреченск,96.3,53.6865289,88.0702754,Кемеровская область - Кузбасс,Сибирский
Мыски,40.8,53.7125695,87.8055646,Кемеровская область - Кузбасс,Сибирский
Новокузнецк,549.4,53.794315,87.2142745,Кемеровская область - Кузбасс,Сибирский
Осинники,41.7,53.5988055,87.3371272,Кемеровская область - Кузбасс,Сибирский
Полысаево,25.9,54.6055,86.2809208,Кемеровская область - Кузбасс,Сибирский
Прокопьевск,190.3,53.8604265,86.7183577,Кемеровская область - Кузбасс,Сибирский
Салаир,7.3,54.2351735,85.8030733,Кемеровская область - Кузбасс,Сибирский
Тайга,23.1,56.0622131,85.6207182,Кемеровская область - Кузбасс,Сибирский
Таштагол,22.9,52.759313,87.8476546,Кемеровская область - Кузбасс,Сибирский
Топки,27.8,55.2764707,85.6152619,Кемеровская область - Кузбасс,Сибирский
Юрга,80.8,55.7202694,84.8886399,Кемеровская область - Кузбасс,Сибирский
Белая Холуница,10.1,58.8415239,50.8460699,Кировская область,Приволжский
Вятские Поляны,31.9,56.2284817,51.0614855,Кировская область,Приволжский
Зуевка,10.2,58.4032152,51.1331606,Кировская область,Приволжский
Киров,518.3,58.6035264,49.6679304,Кировская область,Приволжский
Кирово-Чепецк,69.8,58.5559424,50.0316848,Кировская область,Приволжский
Кирс,9.2,59.340056,52.2414437,Кировская область,Приволжский
Котельнич,22.9,58.3034832,48.3475597,Кировская область,Приволжский
Луза,9.9,60.6290609,47.2612445,Кировская область,Приволжский
Малмыж,7.2,56.5243844,50.6782739,Кировская область,Приволжский
Мураши,5.9,59.3955383,48.9638417,Кировская область,Приволжский
Нолинск,9.6,57.5597284,49.93575,Кировская область,Приволжский
Омутнинск,21.6,58.6698913,52.1894564,Кировская область,Приволжский
Орлов,6.4,58.5389776,48.8927723,Кировская область,Приволжский
Слободской,31.9,58.7311574,50.1669249,Кировская область,Приволжский
Советск,15.2,57.584196,48.9590272,Кировская область,Приволжский
Сосновка,10.7,56.2532741,51.2833642,Кировская область,Приволжский
Уржум,9.8,57.1097477,50.0058097,Кировская область,Приволжский
Яранск,15.5,57.3040326,47.8478737,Кировская область,Приволжский
Буй,23.2,58.4733277,41.5306822,Костромская область,Центральный
Волгореченск,16.3,57.4424559,41.1594201,Костромская область,Центральный
Галич,16.8,58.3828191,42.3654013,Костромская область,Центральный
Кологрив,2.9,58.8269323,44.3184927,Костромская область,Центральный
Кострома,276.9,57.768,40.927,Костромская область,Центральный
Макарьев,6.4,57.8807152,43.8014197,Костромская область,Центральный
Мантурово,15.0,58.3265441,44.757494,Костромская область,Центральный
Нерехта,20.9,57.4543369,40.5723598,Костромская область,Центральный
Нея,8.6,58.2943349,43.8780948,Костромская область,Центральный
Солигалич,5.9,59.0784867,42.2878423,Костромская область,Центральный
Чухлома,4.9,58.753421,42.6884958,Костромская область,Центральный
Шарья,23.5,58.3760542,45.4062414,Костромская область,Центральный
Абинск,39.1,44.8679655,38.1618157,Краснодарский край,Южный
Анапа,88.9,44.8950433,37.3163282,Краснодарский край,Южный
Апшеронск,39.5,44.4584006,39.7299824,Краснодарский край,Южный
Армавир,189.0,45.0012149,41.1324168,Краснодарский край,Южный
Белореченск,51.6,44.7651876,39.8781494,Краснодарский край,Южный
Геленджик,76.8,44.5630007,38.0790852,Краснодарский край,Южный
Горячий Ключ,40.3,44.6344864,39.1354738,Краснодарский край,Южный
Гулькевичи,34.3,45.3605121,40.6918389,Краснодарский край,Южный
Ейск,83.1,46.71157,38.2763895,Краснодарский край,Южный
Кореновск,42.4,45.4641703,39.458949,Краснодарский край,Южный
Краснодар,932.6,45.0401604,38.9759647,Краснодарский край,Южный
Кропоткин,77.7,45.4333007,40.5727951,Краснодарский край,Южный
Крымск,57.9,44.9344404,37.9855795,Краснодарский край,Южный
Курганинск,48.2,44.8877025,40.5913245,Краснодарский край,Южный
Лабинск,59.3,44.6354363,40.7245341,Краснодарский край,Южный
Новокубанск,35.2,45.1038699,41.0475175,Краснодарский край,Южный
Новороссийск,275.0,44.7235026,37.7686135,Краснодарский край,Южный
Приморско-Ахтарск,32.3,46.0515432,38.1704875,Краснодарский край,Южный
Славянск-на-Кубани,67.9,45.2603626,38.1259774,Краснодарский край,Южный
Сочи,443.6,43.5854551,39.7231548,Краснодарский край,Южный
Темрюк,41.4,45.2610949,37.4454412,Краснодарский край,Южный
Тимашевск,50.8,45.615923,38.9351837,Краснодарский край,Южный
Тихорецк,57.1,45.8546345,40.1260267,Краснодарский край,Южный
Туапсе,61.2,44.1105335,39.0824904,Краснодарский край,Южный
Усть-Лабинск,39.5,45.2227359,39.6929577,Краснодарский край,Южный
Хадыженск,22.2,44.4122963,39.5320258,Краснодарский край,Южный
Артемовск,1.6,54.3473075,93.4358377,Красноярский край,Сибирский
Ачинск,105.5,56.253907,90.4794397,Красноярский край,Сибирский
Боготол,19.6,56.2098468,89.5299336,Красноярский край,Сибирский
Бородино,16.1,55.9054121,94.9020967,Красноярский край,Сибирский
Дивногорск,29.2,55.9576784,92.3800687,Красноярский край,Сибирский
Дудинка,20.8,69.4031364,86.1907218,Красноярский край,Сибирский
Енисейск,17.8,58.4485261,92.1651083,Красноярский край,Сибирский
Железногорск,82.6,56.2529035,93.532273,Красноярский край,Сибирский
Заозерный,10.2,55.9617752,94.7091491,Красноярский край,Сибирский
Зеленогорск,61.6,56.1131564,94.5888103,Красноярский край,Сибирский
Игарка,4.3,67.4666901,86.5812794,Красноярский край,Сибирский
Иланский,14.9,56.2374037,96.067267,Красноярский край,Сибирский
Канск,88.9,56.2051282,95.7051096,Красноярский край,Сибирский
Кодинск,15.7,58.6032644,99.1797962,Красноярский край,Сибирский
Красноярск,1093.8,56.0093879,92.8524806,Красноярский край,Сибирский
Лесосибирск,59.3,58.221681,92.5037872,Красноярский край,Сибирский
Минусинск,67.9,53.7104586,91.6872907,Красноярский край,Сибирский
Назарово,49.7,56.0113799,90.4168775,Красноярский край,Сибирский
Норильск,181.8,69.3489978,88.2009846,Красноярский край,Сибирский
Сосновоборск,41.1,56.1202647,93.3354121,Красноярский край,Сибирский
Ужур,15.3,55.3141969,89.8333918,Красноярский край,Сибирский
Уяр,11.9,55.8131263,94.3282601,Красноярский край,Сибирский
Шарыпово,36.7,55.5389739,89.1801044,Красноярский край,Сибирский
Далматово,12.2,56.262114,62.9387011,Курганская область,Уральский
Катайск,12.4,56.290809,62.5800359,Курганская область,Уральский
Курган,312.4,55.4443883,65.3161963,Курганская область,Уральский
Куртамыш,16.5,54.9368539,64.4203722,Курганская область,Уральский
Макушино,7.7,55.2153947,67.2451705,Курганская область,Уральский
Петухово,10.0,55.0650077,67.8873408,Курганская область,Уральский
Шадринск,74.7,56.0870344,63.6297182,Курганская область,Уральский
Шумиха,17.2,55.2280246,63.2901272,Курганская область,Уральский
Щучье,9.5,55.2087637,62.7478548,Курганская область,Уральский
Дмитриев-Льговский,6.3,52.1268464,35.0739038,Курская область,Центральный
Железногорск,100.4,52.3380202,35.3516867,Курская область,Центральный
Курск,453.0,51.7303637,36.1925603,Курская область,Центральный
Курчатов,38.1,51.6604083,35.6572224,Курская область,Центральный
Льгов,18.1,51.6597148,35.2612491,Курская область,Центральный
Обоянь,13.2,51.2119324,36.2755133,Курская область,Центральный
Рыльск,16.0,51.5681314,34.6802597,Курская область,Центральный
Суджа,5.6,51.1918927,35.2720915,Курская область,Центральный
Фатеж,6.1,52.0917728,35.8538706,Курская область,Центральный
Щигры,15.0,51.8786014,36.8910945,Курская область,Центральный
Бокситогорск,15.1,59.4734797,33.845688,Ленинградская область,Северо-Западный
Волосово,11.8,59.4445408,29.4923355,Ленинградская область,Северо-Западный
Волхов,44.3,59.9005958,32.3520756,Ленинградская область,Северо-Западный
Всеволожск,74.7,60.0191278,30.6456718,Ленинградская область,Северо-Западный
Выборг,75.4,60.7130801,28.7328336,Ленинградская область,Северо-Западный
Высоцк,1.1,60.6296236,28.5709314,Ленинградская область,Северо-Западный
Гатчина,91.7,59.565237,30.1282473,Ленинградская область,Северо-Западный
Ивангород,9.5,59.3766119,28.2231659,Ленинградская область,Северо-Западный
Каменногорск,6.3,60.950855,29.1308372,Ленинградская область,Северо-Западный
Кингисепп,45.2,59.3740435,28.6112444,Ленинградская область,Северо-Западный
Кириши,50.5,59.4742862,32.0624947,Ленинградская область,Северо-Западный
Кировск,26.9,59.8754216,30.981364,Ленинградская область,Северо-Западный
Коммунар,22.2,59.6215133,30.3934125,Ленинградская область,Северо-Западный
Кудрово,41.1,59.9075226,30.5121008,Ленинградская область,Северо-Западный
Лодейное Поле,19.0,60.7320936,33.5521022,Ленинградская область,Северо-Западный
Луга,34.6,58.7374031,29.8465776,Ленинградская область,Северо-Западный
Любань,4.4,59.3493847,31.2484801,Ленинградская область,Северо-Западный
Мурино,64.9,60.044862,30.4571456,Ленинградская область,Северо-Западный
Никольское,22.4,59.7043309,30.7874571,Ленинградская область,Северо-Западный
Новая Ладога,8.0,60.1100135,32.3141203,Ленинградская область,Северо-Западный
Отрадное,25.8,59.7726848,30.7988557,Ленинградская область,Северо-Западный
Пикалево,19.7,59.5132022,34.1772776,Ленинградская область,Северо-Западный
Подпорожье,16.7,60.9127549,34.1567664,Ленинградская область,Северо-Западный
Приморск,5.6,60.3660209,28.6135772,Ленинградская область,Северо-Западный
Приозерск,17.8,61.0330896,30.1587851,Ленинградская область,Северо-Западный
Светогорск,15.2,61.1111282,28.8725865,Ленинградская область,Северо-Западный
Сертолово,56.6,60.1446932,30.2095918,Ленинградская область,Северо-Западный
Сланцы,32.2,59.1178185,28.0881475,Ленинградская область,Северо-Западный
Сосновый Бор,67.7,59.8772884,29.1291619,Ленинградская область,Северо-Западный
Сясьстрой,12.4,60.1401739,32.5601559,Ленинградская область,Северо-Западный
Тихвин,58.1,59.6272904,33.5072731,Ленинградская область,Северо-Западный
Тосно,36.3,59.5407098,30.877812,Ленинградская область,Северо-Западный
Шлиссельбург,14.9,59.9443714,31.0333365,Ленинградская область,Северо-Западный
Грязи,46.7,52.4874097,39.9331142,Липецкая область,Центральный
Данков,18.7,53.2577411,39.1456184,Липецкая область,Центральный
Елец,102.3,52.6152411,38.5289342,Липецкая область,Центральный
Задонск,9.5,52.4004179,38.9205032,Липецкая область,Центральный
Лебедянь,19.2,53.0156117,39.143536,Липецкая область,Центральный
Липецк,508.6,52.610249,39.5947883,Липецкая область,Центральный
Усмань,19.6,52.0442648,39.726401,Липецкая область,Центральный
Чаплыгин,11.8,53.24048,39.9670973,Липецкая область,Центральный
Магадан,92.1,59.5681332,150.8084956,Магаданская область,Дальневосточный
Сусуман,4.4,62.7805882,148.1540281,Магаданская область,Дальневосточный
Москва,12655.1,55.7540471,37.620405,Москва,Центральный
Апрелевка,30.7,55.5276918,37.065143,Московская область,Центральный
Балашиха,507.4,55.796389,37.938283,Московская область,Центральный
Белоозерский,17.898,55.4595766,38.4389742,Московская область,Центральный
Бронницы,22.5,55.4255379,38.264145,Московская область,Центральный
Верея,5.1,55.343369,36.185694,Московская область,Центральный
Видное,77.0,55.551725,37.7061984,Московская область,Центральный
Волоколамск,18.4,56.0356499,35.9585112,Московская область,Центральный
Воскресенск,92.9,55.3071519,38.7027953,Московская область,Центральный
Высоковск,10.4,56.3359513,36.5251837,Московская область,Центральный
Голицыно,17.5,55.6190582,36.9856793,Московская область,Центральный
Дедовск,30.5,55.8703276,37.1245043,Московская область,Центральный
Дзержинский,56.4,55.6240869,37.8440276,Московская область,Центральный
Дмитров,68.8,56.3477457,37.526672,Московская область,Центральный
Долгопрудный,116.0,55.9385999,37.5101021,Московская область,Центральный
Домодедово,137.2,55.4363283,37.7664984,Московская область,Центральный
Дрезна,11.3,55.7443143,38.8498479,Московская область,Центральный
Дубна,75.0,56.741786,37.1757223,Московская область,Центральный
Егорьевск,72.8,55.3830113,39.0358317,Московская область,Центральный
Жуковский,107.6,55.599803,38.1224298,Московская область,Центральный
Зарайск,22.8,54.762456,38.8850978,Московская область,Центральный
Звенигород,22.3,55.7297089,36.8554029,Московская область,Центральный
Ивантеевка,81.3,55.9741665,37.9207539,Московская область,Центральный
Истра,33.6,55.9062267,36.8601454,Московская область,Центральный
Кашира,47.4,54.853337,38.1904392,Московская область,Центральный
Клин,79.7,56.3425605,36.7240032,Московская область,Центральный
Коломна,140.1,55.102814,38.7531002,Московская область,Центральный
Королев,225.9,55.9161773,37.8545415,Московская область,Центральный
Котельники,49.0,55.6597925,37.8631156,Московская область,Центральный
Красноармейск,26.3,56.105426,38.140838,Московская область,Центральный
Красногорск,175.6,55.8317203,37.3295266,Московская область,Центральный
Краснозаводск,12.8,56.4409979,38.2320307,Московская область,Центральный
Краснознаменск,43.2,55.5978959,37.0393709,Московская область,Центральный
Кубинка,20.1,55.5754955,36.6951995,Московская область,Центральный
Куровское,20.6,55.5792277,38.9207723,Московская область,Центральный
Ликино-Дулево,28.8,55.7078257,38.9578093,Московская область,Центральный
Лобня,90.2,56.0328881,37.4614035,Московская область,Центральный
Лосино-Петровский,25.4,55.8713214,38.200599,Московская область,Центральный
Луховицы,30.4,54.9652077,39.0260266,Московская область,Центральный
Лыткарино,59.2,55.5778163,37.9033507,Московская область,Центральный
Люберцы,205.3,55.7003989,37.9606238,Московская область,Центральный
Можайск,30.1,55.5069259,36.024043,Московская область,Центральный
Мытищи,235.5,55.9105782,37.7363579,Московская область,Центральный
Наро-Фоминск,64.9,55.386185,36.734484,Московская область,Центральный
Ногинск,104.0,55.8686133,38.4622104,Московская область,Центральный
Одинцово,135.5,55.6789455,37.263686,Московская область,Центральный
Озеры,24.7,54.8541006,38.5599196,Московская область,Центральный
Орехово-Зуево,118.3,55.8151421,38.9869822,Московская область,Центральный
Павловский Посад,63.6,55.7807244,38.6596983,Московская область,Центральный
Пересвет,13.4,56.4158326,38.1733534,Московская область,Центральный
Подольск,308.1,55.4389322,37.5703482,Московская область,Центральный
Протвино,35.4,54.8705984,37.2182749,Московская область,Центральный
Пушкино,107.6,56.0103638,37.8471403,Московская область,Центральный
Пущино,20.7,54.8324412,37.6210346,Московская область,Центральный
Раменское,121.9,55.5495132,38.2728914,Московская область,Центральный
Реутов,108.1,55.7582621,37.8618553,Московская область,Центральный
Рошаль,20.0,55.6632776,39.8656147,Московская область,Центральный
Руза,12.7,55.7014744,36.1959206,Московская область,Центральный
Сергиев Посад,100.3,56.3062548,38.1502661,Московская область,Центральный
Серпухов,126.3,54.9226466,37.4033859,Московская область,Центральный
Солнечногорск,50.2,56.185102,36.977631,Московская область,Центральный
Старая Купавна,24.2,55.810648,38.175624,Московская область,Центральный
Ступино,65.9,54.886274,38.078228,Московская область,Центральный
Талдом,12.6,56.7308564,37.5276003,Московская область,Центральный
Фрязино,59.5,55.9590588,38.0410235,Московская область,Центральный
Химки,259.6,55.888657,37.4303702,Московская область,Центральный
Хотьково,21.3,56.2516982,37.9396017,Московская область,Центральный
Черноголовка,21.3,56.0100707,38.3792047,Московская область,Центральный
Чехов,72.3,55.1508011,37.4533252,Московская область,Центральный
Шатура,32.0,55.5777427,39.5445712,Московская область,Центральный
Щелково,126.1,55.9233801,37.9783707,Московская область,Центральный
Электрогорск,22.7,55.8780241,38.7806752,Московская область,Центральный
Электросталь,156.0,55.7847291,38.4447045,Московская область,Центральный
Электроугли,21.3,55.7170877,38.2192563,Московская область,Центральный
Яхрома,14.1,56.2890516,37.4831799,Московская область,Центральный
Апатиты,54.7,67.5677761,33.4067929,Мурманская область,Северо-Западный
Гаджиево,13.1,69.2491311,33.315341,Мурманская область,Северо-Западный
Заозерск,9.3,69.4003584,32.4501496,Мурманская область,Северо-Западный
Заполярный,14.7,69.4132852,30.7984312,Мурманская область,Северо-Западный
Кандалакша,30.4,67.1567974,32.4143218,Мурманская область,Северо-Западный
Кировск,26.0,67.6150424,33.663735,Мурманская область,Северо-Западный
Ковдор,16.3,67.5661417,30.4741941,Мурманская область,Северо-Западный
Кола,9.7,68.8786028,33.0262299,Мурманская область,Северо-Западный
Мончегорск,41.2,67.9386153,32.9359719,Мурманская область,Северо-Западный
Мурманск,287.8,69.007721,33.0685865,Мурманская область,Северо-Западный
Оленегорск,20.3,68.1422058,33.2669407,Мурманская область,Северо-Западный
Островной,1.7,68.0510344,39.5077846,Мурманская область,Северо-Западный
Полярные Зори,14.2,67.373084,32.4975636,Мурманская область,Северо-Западный
Полярный,17.5,69.1989583,33.4508591,Мурманская область,Северо-Западный
Североморск,53.6,69.0766801,33.4177759,Мурманская область,Северо-Западный
Снежногорск,12.8,69.1921409,33.2383502,Мурманская область,Северо-Западный
Арзамас,104.0,55.3945814,43.8408141,Нижегородская область,Приволжский
Балахна,48.5,56.495036,43.5758423,Нижегородская область,Приволжский
Богородск,33.8,56.1020828,43.5135442,Нижегородская область,Приволжский
Бор,76.9,56.3565458,44.0646481,Нижегородская область,Приволжский
Ветлуга,8.3,57.8559204,45.7761957,Нижегородская область,Приволжский
Володарск,9.9,56.2169751,43.1596417,Нижегородская область,Приволжский
Ворсма,10.3,55.989943,43.2718859,Нижегородская область,Приволжский
Выкса,53.0,55.3207727,42.1678834,Нижегородская область,Приволжский
Горбатов,1.8,56.1307769,43.0626185,Нижегородская область,Приволжский
Городец,29.7,56.6449218,43.4723104,Нижегородская область,Приволжский
Дзержинск,229.0,56.2376047,43.4599416,Нижегородская область,Приволжский
Заволжье,37.6,56.6404286,43.3872492,Нижегородская область,Приволжский
Княгинино,6.5,55.8205915,45.032337,Нижегородская область,Приволжский
Кстово,67.8,56.1432084,44.1664198,Нижегородская область,Приволжский
Кулебаки,31.8,55.4296181,42.5125538,Нижегородская область,Приволжский
Лукоянов,13.8,55.0326225,44.4933807,Нижегородская область,Приволжский
Лысково,21.1,56.0262359,45.035771,Нижегородская область,Приволжский
Навашино,14.6,55.543811,42.1887089,Нижегородская область,Приволжский
Нижний Новгород,1252.2,56.3240627,44.0053913,Нижегородская область,Приволжский
Павлово,56.7,55.9797564,43.0995042,Нижегородская область,Приволжский
Первомайск,13.3,54.8675792,43.8013992,Нижегородская область,Приволжский
Перевоз,8.7,55.5967718,44.5448369,Нижегородская область,Приволжский
Саров,96.1,54.9228268,43.3448089,Нижегородская область,Приволжский
Семенов,24.1,56.7889794,44.4902885,Нижегородская область,Приволжский
Сергач,19.9,55.5201515,45.4813231,Нижегородская область,Приволжский
Урень,12.3,57.4612572,45.7833293,Нижегородская область,Приволжский
Чкаловск,11.3,56.7651262,43.242077,Нижегородская область,Приволжский
Шахунья,19.7,57.6764293,46.6129009,Нижегородская область,Приволжский
Боровичи,49.0,58.3840197,33.9175929,Новгородская область,Северо-Западный
Валдай,14.0,57.9823766,33.2369436,Новгородская область,Северо-Западный
Великий Новгород,224.9,58.5213846,31.2755394,Новгородская область,Северо-Западный
Малая Вишера,10.3,58.8458379,32.2247401,Новгородская область,Северо-Западный
Окуловка,9.8,58.3910296,33.2901557,Новгородская область,Северо-Западный
Пестово,15.0,58.5973723,35.8143898,Новгородская область,Северо-Западный
Сольцы,8.5,58.1201281,30.309351,Новгородская область,Северо-Западный
Старая Русса,27.7,57.990737,31.3554897,Новгородская область,Северо-Западный
Холм,3.4,57.145108,31.1787499,Новгородская область,Северо-Западный
Чудово,13.9,59.1248394,31.6866241,Новгородская область,Северо-Западный
Барабинск,28.7,55.35146,78.3464506,Новосибирская область,Сибирский
Бердск,104.3,54.7582156,83.1070605,Новосибирская область,Сибирский
Болотное,15.5,55.6692421,84.3906889,Новосибирская область,Сибирский
Искитим,56.0,54.6267603,83.2951244,Новосибирская область,Сибирский
Карасук,26.8,53.7343189,78.0422967,Новосибирская область,Сибирский
Каргат,9.0,55.1945666,80.2829495,Новосибирская область,Сибирский
Куйбышев,43.5,55.4685094,78.3242048,Новосибирская область,Сибирский
Купино,13.8,54.366055,77.2973368,Новосибирская область,Сибирский
Новосибирск,1625.6,55.028191,82.9211489,Новосибирская область,Сибирский
Обь,29.9,54.9945576,82.6937181,Новосибирская область,Сибирский
Татарск,23.4,55.2146167,75.9739914,Новосибирская область,Сибирский
Тогучин,20.8,55.2251631,84.4104118,Новосибирская область,Сибирский
Черепаново,19.1,54.2206476,83.3724521,Новосибирская область,Сибирский
Чулым,11.0,55.0906867,80.9592508,Новосибирская область,Сибирский
Исилькуль,22.4,54.9096002,71.2816284,Омская область,Сибирский
Калачинск,22.6,55.0598155,74.5653644,Омская область,Сибирский
Называевск,10.9,55.5689323,71.3503426,Омская область,Сибирский
Омск,1154.5,54.9848566,73.3674517,Омская область,Сибирский
Тара,28.2,56.9160511,74.3649194,Омская область,Сибирский
Тюкалинск,10.3,55.8703415,72.1954747,Омская область,Сибирский
Абдулино,18.6,53.6778906,53.6472483,Оренбургская область,Приволжский
Бугуруслан,48.5,53.6523728,52.4326853,Оренбургская область,Приволжский
Бузулук,86.1,52.7881277,52.2624877,Оренбургская область,Приволжский
Гай,33.8,51.4649189,58.4436875,Оренбургская область,Приволжский
Кувандык,23.3,51.4783857,57.3612636,Оренбургская область,Приволжский
Медногорск,24.6,51.4037617,57.583163,Оренбургская область,Приволжский
Новотроицк,83.7,51.1964202,58.3018192,Оренбургская область,Приволжский
Оренбург,572.2,51.7875092,55.1018828,Оренбургская область,Приволжский
Орск,226.5,51.2294282,58.4752777,Оренбургская область,Приволжский
Соль-Илецк,26.9,51.1633736,54.9896726,Оренбургская область,Приволжский
Сорочинск,27.1,52.426685,53.1542745,Оренбургская область,Приволжский
Ясный,15.3,51.036838,59.874344,Оренбургская область,Приволжский
Болхов,10.9,53.4438496,36.0076833,Орловская область,Центральный
Дмитровск,5.0,52.5054851,35.1415009,Орловская область,Центральный
Ливны,47.2,52.4284558,37.6039506,Орловская область,Центральный
Малоархангельск,3.2,52.4002192,36.5038579,Орловская область,Центральный
Мценск,36.6,53.2788438,36.5749105,Орловская область,Центральный
Новосиль,3.1,52.97454,37.0437146,Орловская область,Центральный
Орел,308.8,52.9671298,36.0696427,Орловская область,Центральный
Белинский,7.5,52.9640996,43.4183212,Пензенская область,Приволжский
Городище,7.7,53.2726916,45.7026142,Пензенская область,Приволжский
Заречный,65.5,53.1960836,45.1689907,Пензенская область,Приволжский
Каменка,34.6,53.1855463,44.0469717,Пензенская область,Приволжский
Кузнецк,80.5,53.1130888,46.605092,Пензенская область,Приволжский
Нижний Ломов,20.5,53.5300905,43.6730217,Пензенская область,Приволжский
Никольск,19.6,53.7137496,46.0799857,Пензенская область,Приволжский
Пенза,520.3,53.1753314,45.0348625,Пензенская область,Приволжский
Сердобск,30.9,52.4697595,44.2122414,Пензенская область,Приволжский
Спасск,7.0,53.9271974,43.1859073,Пензенская область,Приволжский
Сурск,5.9,53.0761357,45.6910796,Пензенская область,Приволжский
Александровск,11.9,59.1613221,57.5763459,Пермский край,Приволжский
Березники,139.2,59.4079923,56.8039427,Пермский край,Приволжский
Верещагино,21.3,58.0797571,54.6581309,Пермский край,Приволжский
Горнозаводск,11.2,58.3742532,58.3231716,Пермский край,Приволжский
Гремячинск,8.2,58.5626082,57.8520572,Пермский край,Приволжский
Губаха,19.1,58.8371721,57.554533,Пермский край,Приволжский
Добрянка,32.1,58.469685,56.4130737,Пермский край,Приволжский
Кизел,13.5,59.0512783,57.6471028,Пермский край,Приволжский
Красновишерск,14.8,60.3901321,57.0535682,Пермский край,Приволжский
Краснокамск,52.5,58.0822065,55.7479936,Пермский край,Приволжский
Кудымкар,30.4,59.0167925,54.6572508,Пермский край,Приволжский
Кунгур,64.9,57.4283296,56.9438656,Пермский край,Приволжский
Лысьва,60.3,58.0995875,57.8086825,Пермский край,Приволжский
Нытва,18.1,57.9336725,55.3356084,Пермский край,Приволжский
Оса,20.8,57.2889515,55.4688668,Пермский край,Приволжский
Оханск,7.0,57.7180034,55.3872469,Пермский край,Приволжский
Очер,14.2,57.8852686,54.7161091,Пермский край,Приволжский
Пермь,1055.4,58.0102583,56.2342034,Пермский край,Приволжский
Соликамск,92.6,59.6482998,56.771009,Пермский край,Приволжский
Усолье,6.3,59.4277573,56.6837872,Пермский край,Приволжский
Чайковский,82.4,56.7781501,54.1477965,Пермский край,Приволжский
Чердынь,4.6,60.4011933,56.4799933,Пермский край,Приволжский
Чермоз,3.3,58.7842834,56.1507138,Пермский край,Приволжский
Чернушка,33.1,56.5160768,56.0763049,Пермский край,Приволжский
Чусовой,43.7,58.2974596,57.8193615,Пермский край,Приволжский
Арсеньев,52.2,44.1622031,133.2696209,Приморский край,Дальневосточный
Артем,105.7,43.3501675,132.1596175,Приморский край,Дальневосточный
Большой Камень,39.1,43.1111742,132.3480082,Приморский край,Дальневосточный
Владивосток,606.6,43.1164904,131.8823937,Приморский край,Дальневосточный
Дальнегорск,34.1,44.5539457,135.5662716,Приморский край,Дальневосточный
Дальнереченск,25.1,45.9308483,133.7316907,Приморский край,Дальневосточный
Лесозаводск,35.1,45.4780092,133.4186199,Приморский край,Дальневосточный
Находка,145.2,42.8239372,132.8927361,Приморский край,Дальневосточный
Партизанск,36.6,43.1280578,133.1264567,Приморский край,Дальневосточный
Спасск-Дальний,39.8,44.5901175,132.8157288,Приморский край,Дальневосточный
Уссурийск,173.6,43.7971818,131.9518229,Приморский край,Дальневосточный
Фокино,22.9,42.9706317,132.4110196,Приморский край,Дальневосточный
Великие Луки,90.9,56.332208,30.5508641,Псковская область,Северо-Западный
Гдов,3.3,58.7432429,27.8264809,Псковская область,Северо-Западный
Дно,7.4,57.826974,29.9629389,Псковская область,Северо-Западный
Невель,14.5,56.0201973,29.9239983,Псковская область,Северо-Западный
Новоржев,3.1,57.029807,29.3433083,Псковская область,Северо-Западный
Новосокольники,7.0,56.3408431,30.1527573,Псковская область,Северо-Западный
Опочка,9.5,56.710725,28.6717519,Псковская область,Северо-Западный
Остров,20.5,57.3451528,28.3437593,Псковская область,Северо-Западный
Печоры,9.3,57.8145817,27.622259,Псковская область,Северо-Западный
Порхов,8.3,57.7765219,29.5436626,Псковская область,Северо-Западный
Псков,210.3,57.8194415,28.3317198,Псковская область,Северо-Западный
Пустошка,3.9,56.3374813,29.3668055,Псковская область,Северо-Западный
Пыталово,5.4,57.0637952,27.9236214,Псковская область,Северо-Западный
Себеж,5.3,56.2908554,28.4724326,Псковская область,Северо-Западный
Адыгейск,12.7,44.878414,39.190289,Республика Адыгея,Южный
Майкоп,141.5,44.6098268,40.1006606,Республика Адыгея,Южный
Горно-Алтайск,64.5,51.9581028,85.9603235,Республика Алтай,Сибирский
Агидель,14.2,55.8999056,53.9220144,Республика Башкортостан,Приволжский
Баймак,17.2,52.5912896,58.3110998,Республика Башкортостан,Приволжский
Белебей,59.2,54.1034582,54.1113129,Республика Башкортостан,Приволжский
Белорецк,64.9,53.9676488,58.4100419,Республика Башкортостан,Приволжский
Бирск,46.5,55.4155753,55.5582214,Республика Башкортостан,Приволжский
Благовещенск,34.8,55.0499867,55.9553186,Республика Башкортостан,Приволжский
Давлеканово,23.4,54.2226707,55.0312373,Республика Башкортостан,Приволжский
Дюртюли,31.0,55.4848318,54.8524765,Республика Башкортостан,Приволжский
Ишимбай,64.4,53.4545764,56.0438751,Республика Башкортостан,Приволжский
Кумертау,59.5,52.7564939,55.7970197,Республика Башкортостан,Приволжский
Межгорье,15.5,54.2397689,57.9614547,Республика Башкортостан,Приволжский
Мелеуз,56.7,52.9589532,55.9282838,Республика Башкортостан,Приволжский
Нефтекамск,131.1,56.088377,54.2483061,Республика Башкортостан,Приволжский
Октябрьский,114.1,54.4815311,53.4655972,Республика Башкортостан,Приволжский
Салават,150.5,53.3616974,55.9245224,Республика Башкортостан,Приволжский
Сибай,60.8,52.7204651,58.6663783,Республика Башкортостан,Приволжский
Стерлитамак,276.4,53.6300864,55.9317089,Республика Башкортостан,Приволжский
Туймазы,68.2,54.5999224,53.6950623,Республика Башкортостан,Приволжский
Уфа,1128.8,54.734944,55.9578468,Республика Башкортостан,Приволжский
Учалы,37.9,54.3067375,59.4125461,Республика Башкортостан,Приволжский
Янаул,25.1,56.2650146,54.929907,Республика Башкортостан,Приволжский
Бабушкин,4.5,51.7112755,105.8673219,Республика Бурятия,Дальневосточный
Гусиноозерск,23.0,51.2865048,106.5230319,Республика Бурятия,Дальневосточный
Закаменск,11.2,50.372713,103.286699,Республика Бурятия,Дальневосточный
Кяхта,20.3,50.346543,106.4533516,Республика Бурятия,Дальневосточный
Северобайкальск,23.2,55.635614,109.3361505,Республика Бурятия,Дальневосточный
Улан-Удэ,439.1,51.8335853,107.5842223,Республика Бурятия,Дальневосточный
Буйнакск,65.7,42.8214424,47.1165263,Республика Дагестан,Северо-Кавказский
Дагестанские Огни,29.7,42.1152296,48.1939354,Республика Дагестан,Северо-Кавказский
Дербент,125.8,42.058966,48.2907452,Республика Дагестан,Северо-Кавказский
Избербаш,60.5,42.5650962,47.8710051,Республика Дагестан,Северо-Кавказский
Каспийск,124.0,42.8916007,47.6367066,Республика Дагестан,Северо-Кавказский
Кизилюрт,37.7,43.203825,46.8729636,Республика Дагестан,Северо-Кавказский
Кизляр,49.4,43.8484083,46.7233699,Республика Дагестан,Северо-Кавказский
Махачкала,603.5,42.9849159,47.5047181,Республика Дагестан,Северо-Кавказский
Хасавюрт,145.1,43.2504665,46.5851292,Республика Дагестан,Северо-Кавказский
Южно-Сухокумск,10.7,44.6602467,45.6499523,Республика Дагестан,Северо-Кавказский
Карабулак,42.7,43.3055248,44.9094582,Республика Ингушетия,Северо-Кавказский
Магас,12.2,43.1688611,44.8131207,Республика Ингушетия,Северо-Кавказский
Малгобек,38.6,43.5096646,44.5901963,Республика Ингушетия,Северо-Кавказский
Назрань,122.3,43.2257841,44.7645779,Республика Ингушетия,Северо-Кавказский
Сунжа,66.3,43.3204196,45.0476331,Республика Ингушетия,Северо-Кавказский
Городовиковск,8.6,46.0875083,41.935537,Республика Калмыкия,Южный
Лагань,12.8,45.3930912,47.3432602,Республика Калмыкия,Южный
Элиста,103.1,46.3083344,44.2702088,Республика Калмыкия,Южный
Беломорск,9.2,64.5378417,34.7799462,Республика Карелия,Северо-Западный
Кемь,10.6,64.9543539,34.5949263,Республика Карелия,Северо-Западный
Кондопога,29.2,62.2059817,34.2682122,Республика Карелия,Северо-Западный
Костомукша,29.6,64.5889398,30.6016832,Республика Карелия,Северо-Западный
Лахденпохья,7.1,61.518881,30.1996116,Республика Карелия,Северо-Западный
Медвежьегорск,14.1,62.9127626,34.4568489,Республика Карелия,Северо-Западный
Олонец,8.0,60.9794025,32.9725519,Республика Карелия,Северо-Западный
Петрозаводск,281.0,61.7891264,34.3596434,Республика Карелия,Северо-Западный
Питкяранта,10.2,61.5757191,31.4640557,Республика Карелия,Северо-Западный
Пудож,8.6,61.8058821,36.5329941,Республика Карелия,Северо-Западный
Сегежа,26.0,63.7437572,34.3126982,Республика Карелия,Северо-Западный
Сортавала,18.8,61.703367,30.6916998,Республика Карелия,Северо-Западный
Суоярви,8.7,62.0787293,32.3499386,Республика Карелия,Северо-Западный
Воркута,52.8,67.4974082,64.061034,Республика Коми,Северо-Западный
Вуктыл,9.7,63.8615274,57.3165402,Республика Коми,Северо-Западный
Емва,12.4,62.5965137,50.8732125,Республика Коми,Северо-Западный
Инта,24.1,66.0367316,60.1152961,Республика Коми,Северо-Западный
Микунь,9.6,62.3579068,50.0719503,Республика Коми,Северо-Западный
Печора,38.2,65.148584,57.2239777,Республика Коми,Северо-Западный
Сосногорск,26.0,63.5989841,53.876293,Республика Коми,Северо-Западный
Сыктывкар,244.4,61.6686617,50.8358151,Республика Коми,Северо-Западный
Усинск,37.2,65.994147,57.5569423,Республика Коми,Северо-Западный
Ухта,93.7,63.5565514,53.7014239,Республика Коми,Северо-Западный
Алупка,8.0,44.4164605,34.0444797,Республика Крым,Южный
Алушта,30.0,44.6764304,34.4100624,Республика Крым,Южный
Армянск,21.4,46.1059307,33.6910012,Республика Крым,Южный
Бахчисарай,26.7,44.7514769,33.8752176,Республика Крым,Южный
Белогорск,16.4,45.057202,34.5999029,Республика Крым,Южный
Джанкой,38.0,45.7092306,34.3883372,Республика Крым,Южный
Евпатория,108.2,45.190629,33.367634,Республика Крым,Южный
Керчь,151.5,45.3562627,36.4674513,Республика Крым,Южный
Красноперекопск,24.9,45.9537576,33.7921939,Республика Крым,Южный
Саки,24.7,45.1341997,33.6033383,Республика Крым,Южный
Симферополь,342.0,44.9482948,34.1001151,Республика Крым,Южный
Старый Крым,9.5,45.029058,35.0901474,Республика Крым,Южный
Судак,16.5,44.8504679,34.9762034,Республика Крым,Южный
Феодосия,68.0,45.0318393,35.3824259,Республика Крым,Южный
Щелкино,10.2,45.4288991,35.825165,Республика Крым,Южный
Ялта,79.0,44.4953612,34.166308,Республика Крым,Южный
Волжск,53.2,55.8623156,48.3715083,Республика Марий Эл,Приволжский
Звенигово,10.9,55.9738571,48.0170245,Республика Марий Эл,Приволжский
Йошкар-Ола,274.7,56.6343662,47.8999706,Республика Марий Эл,Приволжский
Козьмодемьянск,20.1,56.3334036,46.546675,Республика Марий Эл,Приволжский
Ардатов,8.3,54.8465544,46.2411232,Республика Мордовия,Приволжский
Инсар,7.7,53.8770022,44.3696566,Республика Мордовия,Приволжский
Ковылкино,18.9,54.0391072,43.9191539,Республика Мордовия,Приволжский
Краснослободск,9.2,54.4248207,43.7845011,Республика Мордовия,Приволжский
Рузаевка,44.3,54.0581967,44.9490466,Республика Мордовия,Приволжский
Саранск,320.6,54.1809332,45.1862632,Республика Мордовия,Приволжский
Темников,5.8,54.6310583,43.2161099,Республика Мордовия,Приволжский
Алдан,20.6,58.6094283,125.3817188,Республика Саха (Якутия),Дальневосточный
Верхоянск,1.1,67.5502451,133.390735,Республика Саха (Якутия),Дальневосточный
Вилюйск,11.3,63.7517616,121.627284,Республика Саха (Якутия),Дальневосточный
Ленск,23.2,60.7276196,114.9548255,Республика Саха (Якутия),Дальневосточный
Мирный,35.4,62.536232,113.9667728,Республика Саха (Якутия),Дальневосточный
Нерюнгри,57.9,56.6599953,124.7202403,Республика Саха (Якутия),Дальневосточный
Нюрба,9.7,63.2828955,118.3242437,Республика Саха (Якутия),Дальневосточный
Олекминск,9.2,60.3758006,120.4060878,Республика Саха (Якутия),Дальневосточный
Покровск,9.4,61.4843503,129.1482392,Республика Саха (Якутия),Дальневосточный
Среднеколымск,3.5,67.4582218,153.7069425,Республика Саха (Якутия),Дальневосточный
Томмот,6.8,58.9586859,126.2875462,Республика Саха (Якутия),Дальневосточный
Удачный,12.0,66.4071765,112.3061555,Республика Саха (Якутия),Дальневосточный
Якутск,323.0,62.0281405,129.7325887,Республика Саха (Якутия),Дальневосточный
Алагир,19.7,43.0417684,44.2199715,Республика Северная Осетия – Алания,Северо-Кавказский
Ардон,19.3,43.1755152,44.2955775,Республика Северная Осетия – Алания,Северо-Кавказский
Беслан,37.4,43.1937529,44.5338707,Республика Северная Осетия – Алания,Северо-Кавказский
Владикавказ,303.6,43.020588,44.6819182,Республика Северная Осетия – Алания,Северо-Кавказский
Дигора,10.1,43.1567628,44.1549483,Республика Северная Осетия – Алания,Северо-Кавказский
Моздок,42.0,43.7471342,44.6569607,Республика Северная Осетия – Алания,Северо-Кавказский
Агрыз,19.7,56.5232864,52.9943775,Республика Татарстан,Приволжский
Азнакаево,34.2,54.8598642,53.0745527,Республика Татарстан,Приволжский
Альметьевск,158.4,54.9014619,52.2970467,Республика Татарстан,Приволжский
Арск,20.4,56.0912567,49.877067,Республика Татарстан,Приволжский
Бавлы,22.2,54.4062891,53.2458065,Республика Татарстан,Приволжский
Болгар,8.2,54.974891,49.0303882,Республика Татарстан,Приволжский
Бугульма,82.5,54.5363495,52.7895849,Республика Татарстан,Приволжский
Буинск,20.4,54.9641538,48.2901209,Республика Татарстан,Приволжский
Елабуга,74.0,55.7567107,52.0543794,Республика Татарстан,Приволжский
Заинск,39.6,55.299053,52.0062972,Республика Татарстан,Приволжский
Зеленодольск,100.0,55.8466651,48.5010954,Республика Татарстан,Приволжский
Иннополис,0.4,55.7521699,48.7446846,Республика Татарстан,Приволжский
Казань,1257.4,55.7943584,49.1114975,Республика Татарстан,Приволжский
Кукмор,17.8,56.1861392,50.8970238,Республика Татарстан,Приволжский
Лаишево,8.8,55.4042867,49.5499838,Республика Татарстан,Приволжский
Лениногорск,61.7,54.5967034,52.4431906,Республика Татарстан,Приволжский
Мамадыш,15.9,55.7150413,51.4129016,Республика Татарстан,Приволжский
Менделеевск,22.1,55.895169,52.3143347,Республика Татарстан,Приволжский
Мензелинск,16.9,55.7270698,53.1003968,Республика Татарстан,Приволжский
Набережные Челны,533.8,55.7434619,52.3959165,Республика Татарстан,Приволжский
Нижнекамск,240.0,55.6313609,51.8144669,Республика Татарстан,Приволжский
Нурлат,32.0,54.4281461,50.8049337,Республика Татарстан,Приволжский
Тетюши,11.0,54.936516,48.8314533,Республика Татарстан,Приволжский
Чистополь,59.4,55.3699139,50.6285784,Республика Татарстан,Приволжский
Ак-Довурак,13.6,51.178452,90.5985129,Республика Тыва,Сибирский
Кызыл,119.4,51.7191047,94.4376882,Республика Тыва,Сибирский
Туран,4.9,52.1449619,93.9173396,Республика Тыва,Сибирский
Чадан,9.4,51.2844502,91.5788609,Республика Тыва,Сибирский
Шагонар,11.2,51.5346393,92.9199675,Республика Тыва,Сибирский
Абаза,15.0,52.6516647,90.0885686,Республика Хакасия,Сибирский
Абакан,186.8,53.7223325,91.4436721,Республика Хакасия,Сибирский
Саяногорск,46.0,53.1008083,91.4122454,Республика Хакасия,Сибирский
Сорск,11.2,54.0002888,90.2594446,Республика Хакасия,Сибирский
Черногорск,75.4,53.8259342,91.3260229,Республика Хакасия,Сибирский
Азов,80.4,47.1121589,39.4232555,Ростовская область,Южный
Аксай,46.0,47.2676314,39.8756872,Ростовская область,Южный
Батайск,127.9,47.1383299,39.7507179,Ростовская область,Южный
Белая Калитва,39.3,48.1769737,40.8033529,Ростовская область,Южный
Волгодонск,171.4,47.5165338,42.1984951,Ростовская область,Южный
Гуково,63.2,48.0448904,39.9484672,Ростовская область,Южный
Донецк,46.7,48.3350706,39.945891,Ростовская область,Южный
Зверево,18.0,48.0435487,40.1265822,Ростовская область,Южный
Зерноград,24.1,46.8495958,40.312837,Ростовская область,Южный
Каменск-Шахтинский,87.8,48.3205326,40.2689583,Ростовская область,Южный
Константиновск,16.9,47.5773717,41.0967445,Ростовская область,Южный
Красный Сулин,37.6,47.8831311,40.0781298,Ростовская область,Южный
Миллерово,34.5,48.9260077,40.3984087,Ростовская область,Южный
Морозовск,24.6,48.3511807,41.8309225,Ростовская область,Южный
Новочеркасск,168.0,47.411919,40.1042098,Ростовская область,Южный
Новошахтинск,106.6,47.757773,39.9363697,Ростовская область,Южный
Пролетарск,18.7,46.7038963,41.727594,Ростовская область,Южный
Ростов-на-Дону,1137.9,47.2224566,39.718803,Ростовская область,Южный
Сальск,56.8,46.4752095,41.5410415,Ростовская область,Южный
Семикаракорск,21.9,47.5177337,40.8114167,Ростовская область,Южный
Таганрог,248.6,47.2094917,38.9350989,Ростовская область,Южный
Цимлянск,14.4,47.6477448,42.0931505,Ростовская область,Южный
Шахты,230.3,47.7085287,40.2159846,Ростовская область,Южный
Касимов,29.2,54.9373475,41.3913211,Рязанская область,Центральный
Кораблино,11.1,53.9246659,40.0227745,Рязанская область,Центральный
Михайлов,9.9,54.2297402,39.0091481,Рязанская область,Центральный
Новомичуринск,16.5,54.0376572,39.74654,Рязанская область,Центральный
Рыбное,20.7,54.7256164,39.5134398,Рязанская область,Центральный
Ряжск,20.9,53.7067584,40.0522274,Рязанская область,Центральный
Рязань,539.3,54.6254445,39.7358609,Рязанская область,Центральный
Сасово,23.8,54.3508885,41.9117422,Рязанская область,Центральный
Скопин,25.7,53.823543,39.5492421,Рязанская область,Центральный
Спас-Клепики,5.2,55.1291721,40.1745338,Рязанская область,Центральный
Спасск-Рязанский,6.6,54.4070719,40.3763426,Рязанская область,Центральный
Шацк,5.8,54.0287312,41.7181803,Рязанская область,Центральный
Жигулевск,51.6,53.4011981,49.4945176,Самарская область,Приволжский
Кинель,35.8,53.2210298,50.6343776,Самарская область,Приволжский
Нефтегорск,17.9,52.7972914,51.1637392,Самарская область,Приволжский
Новокуйбышевск,100.5,53.0994565,49.9477382,Самарская область,Приволжский
Октябрьск,26.3,53.1640488,48.670762,Самарская область,Приволжский
Отрадный,47.1,53.3800848,51.3438605,Самарская область,Приволжский
Похвистнево,27.9,53.6498299,52.1235156,Самарская область,Приволжский
Самара,1156.7,53.1950306,50.1069518,Самарская область,Приволжский
Сызрань,167.1,53.1558674,48.4744629,Самарская область,Приволжский
Тольятти,699.4,53.5205348,49.3894028,Самарская область,Приволжский
Чапаевск,71.7,52.928961,49.8673269,Самарская область,Приволжский
Санкт-Петербург,5384.3,59.9391313,30.3159004,Санкт-Петербург,Северо-Западный
Аркадак,11.5,51.938831,43.4999221,Саратовская область,Приволжский
Аткарск,24.1,51.8736062,45.0003247,Саратовская область,Приволжский
Балаково,187.5,52.0224231,47.7827765,Саратовская область,Приволжский
Балашов,75.8,51.5388697,43.1839757,Саратовская область,Приволжский
Вольск,61.9,52.0459865,47.3873595,Саратовская область,Приволжский
Ершов,18.8,51.3508505,48.2762226,Саратовская область,Приволжский
Калининск,15.6,51.4993591,44.4710435,Саратовская область,Приволжский
Красноармейск,22.3,51.023541,45.695044,Саратовская область,Приволжский
Красный Кут,14.1,50.9598317,46.9712016,Саратовская область,Приволжский
Маркс,30.0,51.7133337,46.7400339,Саратовская область,Приволжский
Новоузенск,15.1,50.455199,48.1413153,Саратовская область,Приволжский
Петровск,28.2,52.3094237,45.3851877,Саратовская область,Приволжский
Пугачев,40.6,52.0159921,48.7972223,Саратовская область,Приволжский
Ртищево,38.4,52.2616271,43.7842248,Саратовская область,Приволжский
Саратов,838.0,51.533557,46.034257,Саратовская область,Приволжский
Хвалынск,12.3,52.4951572,48.1045771,Саратовская область,Приволжский
Шиханы,5.4,52.1147391,47.2023118,Саратовская область,Приволжский
Энгельс,227.0,51.4854003,46.126722,Саратовская область,Приволжский
Александровск-Сахалинский,9.1,50.8974378,142.1578559,Сахалинская область,Дальневосточный
Анива,9.4,46.713152,142.5265804,Сахалинская область,Дальневосточный
Долинск,11.9,47.3255783,142.7945071,Сахалинская область,Дальневосточный
Корсаков,34.0,46.6324545,142.799445,Сахалинская область,Дальневосточный
Курильск,1.5,45.2270954,147.8796323,Сахалинская область,Дальневосточный
Макаров,6.3,48.6236334,142.7803205,Сахалинская область,Дальневосточный
Невельск,9.8,46.6526899,141.8630725,Сахалинская область,Дальневосточный
Оха,20.0,53.5867839,142.9412411,Сахалинская область,Дальневосточный
Поронайск,15.6,49.238866,143.1008333,Сахалинская область,Дальневосточный
Северо-Курильск,2.6,50.6730577,156.1282211,Сахалинская область,Дальневосточный
Томари,3.8,47.7620108,142.0615837,Сахалинская область,Дальневосточный
Углегорск,8.7,49.0815774,142.0692639,Сахалинская область,Дальневосточный
Холмск,27.1,47.0408423,142.041688,Сахалинская область,Дальневосточный
Южно-Сахалинск,200.6,46.9591631,142.737976,Сахалинская область,Дальневосточный
Алапаевск,37.1,57.8475571,61.6693817,Свердловская область,Уральский
Арамиль,15.4,56.694632,60.8343125,Свердловская область,Уральский
Артемовский,30.1,57.3384177,61.8947443,Свердловская область,Уральский
Асбест,62.9,57.0052277,61.4581156,Свердловская область,Уральский
Березовский,59.0,56.9095924,60.8180907,Свердловская область,Уральский
Богданович,29.3,56.7764795,62.0463679,Свердловская область,Уральский
Верхний Тагил,10.5,57.3763758,59.9517653,Свердловская область,Уральский
Верхняя Пышма,72.7,56.9758903,60.5650383,Свердловская область,Уральский
Верхняя Салда,41.2,58.0465803,60.5560164,Свердловская область,Уральский
Верхняя Тура,9.0,58.3643685,59.8265235,Свердловская область,Уральский
Верхотурье,8.6,58.8622073,60.8103945,Свердловская область,Уральский
Волчанск,8.5,59.9351707,60.0798618,Свердловская область,Уральский
Дегтярск,15.6,56.7048206,60.079138,Свердловская область,Уральский
Екатеринбург,1493.7,56.8385216,60.6054911,Свердловская область,Уральский
Заречный,27.9,56.8102931,61.3380029,Свердловская область,Уральский
Ивдель,15.4,60.6944496,60.4245069,Свердловская область,Уральский
Ирбит,36.5,57.6838362,63.057675,Свердловская область,Уральский
Каменск-Уральский,166.1,56.414962,61.9188674,Свердловская область,Уральский
Камышлов,25.8,56.8465034,62.7119766,Свердловская область,Уральский
Карпинск,25.9,59.7665925,60.0011703,Свердловская область,Уральский
Качканар,38.1,58.7051762,59.4839155,Свердловская область,Уральский
Кировград,18.7,57.4299433,60.0624051,Свердловская область,Уральский
Краснотурьинск,56.3,59.7636635,60.1934525,Свердловская область,Уральский
Красноуральск,22.5,58.348651,60.0408764,Свердловская область,Уральский
Красноуфимск,37.7,56.612387,57.7636637,Свердловская область,Уральский
Кушва,27.2,58.2826013,59.7645766,Свердловская область,Уральский
Лесной,49.3,58.6348516,59.7981565,Свердловская область,Уральский
Михайловск,8.8,56.4370039,59.1137316,Свердловская область,Уральский
Невьянск,22.8,57.49131,60.2183429,Свердловская область,Уральский
Нижние Серги,9.0,56.6544959,59.2953035,Свердловская область,Уральский
Нижний Тагил,349.0,57.910126,59.9812853,Свердловская область,Уральский
Нижняя Салда,17.3,58.0748272,60.7025418,Свердловская область,Уральский
Нижняя Тура,19.4,58.6309267,59.8520344,Свердловская область,Уральский
Новая Ляля,11.6,59.0538977,60.5944825,Свердловская область,Уральский
Новоуральск,80.4,57.2472567,60.0956714,Свердловская область,Уральский
Первоуральск,120.8,56.9080085,59.942926,Свердловская область,Уральский
Полевской,61.0,56.4956952,60.2365298,Свердловская область,Уральский
Ревда,61.5,56.7986319,59.9071591,Свердловская область,Уральский
Реж,36.8,57.3717477,61.3833842,Свердловская область,Уральский
Североуральск,25.6,60.1533109,59.9525245,Свердловская область,Уральский
Серов,95.9,59.6047724,60.5753882,Свердловская область,Уральский
Среднеуральск,23.7,56.9918901,60.4771018,Свердловская область,Уральский
Сухой Лог,33.4,56.9076193,62.0358093,Свердловская область,Уральский
Сысерть,21.0,56.5005715,60.8190003,Свердловская область,Уральский
Тавда,32.6,58.0434672,65.274217,Свердловская область,Уральский
Талица,15.6,57.0122687,63.7320757,Свердловская область,Уральский
Туринск,17.1,58.0393524,63.6981973,Свердловская область,Уральский
Севастополь,510.0,44.6167013,33.525355,Севастополь,Южный
Велиж,6.6,55.6057916,31.1856206,Смоленская область,Центральный
Вязьма,52.3,55.2116983,34.2951663,Смоленская область,Центральный
Гагарин,28.9,55.5525228,34.9950502,Смоленская область,Центральный
Демидов,6.1,55.2682105,31.5062809,Смоленская область,Центральный
Десногорск,27.2,54.146457,33.2833222,Смоленская область,Центральный
Дорогобуж,9.4,54.9136959,33.3023162,Смоленская область,Центральный
Духовщина,3.9,55.1950257,32.401252,Смоленская область,Центральный
Ельня,8.7,54.5837795,33.1749867,Смоленская область,Центральный
Починок,8.3,54.406244,32.4398039,Смоленская область,Центральный
Рославль,48.9,53.9449558,32.8480258,Смоленская область,Центральный
Рудня,9.5,54.9441093,31.0794806,Смоленская область,Центральный
Сафоново,41.1,55.1199661,33.2336988,Смоленская область,Центральный
Смоленск,325.5,54.782635,32.045251,Смоленская область,Центральный
Сычевка,8.3,55.8308821,34.2778793,Смоленская область,Центральный
Ярцево,42.7,55.0564732,32.6902302,Смоленская область,Центральный
Благодарный,30.4,45.0989782,43.4306455,Ставропольский край,Северо-Кавказский
Буденновск,61.3,44.7816067,44.1650339,Ставропольский край,Северо-Кавказский
Георгиевск,66.4,44.1485694,43.4739851,Ставропольский край,Северо-Кавказский
Ессентуки,113.1,44.0446186,42.8588653,Ставропольский край,Северо-Кавказский
Железноводск,24.9,44.1320568,43.0306461,Ставропольский край,Северо-Кавказский
Зеленокумск,34.1,44.4032668,43.8841877,Ставропольский край,Северо-Кавказский
Изобильный,37.8,45.3684296,41.708702,Ставропольский край,Северо-Кавказский
Ипатово,23.2,45.7181751,42.8970206,Ставропольский край,Северо-Кавказский
Кисловодск,128.8,43.9052044,42.7168721,Ставропольский край,Северо-Кавказский
Лермонтов,22.9,44.1054107,42.973135,Ставропольский край,Северо-Кавказский
Минеральные Воды,73.9,44.2087273,43.138408,Ставропольский край,Северо-Кавказский
Михайловск,95.7,45.1297323,42.0288443,Ставропольский край,Северо-Кавказский
Невинномысск,116.7,44.6226031,41.9476723,Ставропольский край,Северо-Кавказский
Нефтекумск,24.4,44.7544552,44.9865347,Ставропольский край,Северо-Кавказский
Новоалександровск,26.5,45.4932733,41.2153996,Ставропольский край,Северо-Кавказский
Новопавловск,26.1,43.9617097,43.6342865,Ставропольский край,Северо-Кавказский
Пятигорск,147.9,44.041091,43.0661553,Ставропольский край,Северо-Кавказский
Светлоград,35.4,45.328659,42.8565714,Ставропольский край,Северо-Кавказский
Ставрополь,450.7,45.044516,41.9689655,Ставропольский край,Северо-Кавказский
Жердевка,14.0,51.8422192,41.4617687,Тамбовская область,Центральный
Кирсанов,16.1,52.6506335,42.7286445,Тамбовская область,Центральный
Котовск,28.9,52.5924489,41.5101237,Тамбовская область,Центральный
Мичуринск,90.7,52.8912389,40.5104443,Тамбовская область,Центральный
Моршанск,38.0,53.4436216,41.8115478,Тамбовская область,Центральный
Рассказово,42.7,52.6538833,41.874285,Тамбовская область,Центральный
Тамбов,292.1,52.7213154,41.452264,Тамбовская область,Центральный
Уварово,23.1,51.9767841,42.2529799,Тамбовская область,Центральный
Андреаполь,6.8,56.6506724,32.2620163,Тверская область,Центральный
Бежецк,20.4,57.7860089,36.6904983,Тверская область,Центральный
Белый,3.1,55.8339056,32.9389741,Тверская область,Центральный
Бологое,20.5,57.8855767,34.0537771,Тверская область,Центральный
Весьегонск,6.0,58.6582598,37.2567558,Тверская область,Центральный
Вышний Волочек,45.5,57.568302,34.5404016,Тверская область,Центральный
Западная Двина,7.8,56.2566492,32.0805315,Тверская область,Центральный
Зубцов,6.1,56.1760868,34.5825515,Тверская область,Центральный
Калязин,12.3,57.2579478,37.7819693,Тверская область,Центральный
Кашин,13.8,57.360194,37.6119436,Тверская область,Центральный
Кимры,43.2,56.8733213,37.3556605,Тверская область,Центральный
Конаково,36.5,56.7275204,36.8012716,Тверская область,Центральный
Красный Холм,5.0,58.0571446,37.1126156,Тверская область,Центральный
Кувшиново,8.9,57.0265168,34.1676009,Тверская область,Центральный
Лихославль,11.4,57.1221304,35.4667605,Тверская область,Центральный
Нелидово,18.1,56.2232566,32.7767459,Тверская область,Центральный
Осташков,15.4,57.1456744,33.1115372,Тверская область,Центральный
Ржев,57.5,56.262881,34.3291002,Тверская область,Центральный
Старица,7.4,56.514876,34.9336396,Тверская область,Центральный
Тверь,425.1,56.8586059,35.9116761,Тверская область,Центральный
Торжок,44.4,57.04133,34.9602344,Тверская область,Центральный
Торопец,11.8,56.5012188,31.6355466,Тверская область,Центральный
Удомля,27.2,57.8787314,35.0167348,Тверская область,Центральный
Асино,24.4,56.9907085,86.1765257,Томская область,Сибирский
Кедровый,1.9,57.561869,79.5677821,Томская область,Сибирский
Колпашево,22.9,58.3114253,82.9025829,Томская область,Сибирский
Северск,106.5,56.6031285,84.8809926,Томская область,Сибирский
Стрежевой,40.8,60.732895,77.604122,Томская область,Сибирский
Томск,576.6,56.4845804,84.9481582,Томская область,Сибирский
Алексин,57.5,54.5083349,37.0478067,Тульская область,Центральный
Белев,12.6,53.8114179,36.1382247,Тульская область,Центральный
Богородицк,30.4,53.7701014,38.1225152,Тульская область,Центральный
Болохово,8.8,54.0820349,37.826724,Тульская область,Центральный
Венев,13.9,54.3542315,38.2642236,Тульская область,Центральный
Донской,62.6,53.9678944,38.3371824,Тульская область,Центральный
Ефремов,34.4,53.1464766,38.0921657,Тульская область,Центральный
Кимовск,25.6,53.9698378,38.5380808,Тульская область,Центральный
Киреевск,26.3,53.9319555,37.9220351,Тульская область,Центральный
Липки,8.1,53.9417551,37.7020148,Тульская область,Центральный
Новомосковск,122.3,54.0109075,38.2914024,Тульская область,Центральный
Плавск,15.7,53.7096415,37.2862352,Тульская область,Центральный
Советск,7.3,53.9338874,37.6316141,Тульская область,Центральный
Суворов,17.2,54.1343585,36.4807419,Тульская область,Центральный
Тула,475.2,54.1920559,37.6153842,Тульская область,Центральный
Узловая,49.7,53.9730452,38.1763201,Тульская область,Центральный
Чекалин,0.9,54.0984438,36.2474142,Тульская область,Центральный
Щекино,57.1,54.0020652,37.5176288,Тульская область,Центральный
Ясногорск,15.4,54.4795484,37.6896048,Тульская область,Центральный
Белоярский,19.6,63.7121099,66.6772226,Тюменская область,Уральский
Губкинский,29.2,64.4457594,76.4713274,Тюменская область,Уральский
Заводоуковск,26.5,56.5027463,66.5513613,Тюменская область,Уральский
Ишим,64.4,56.1104858,69.4795776,Тюменская область,Уральский
Когалым,67.7,62.2639527,74.4829794,Тюменская область,Уральский
Лабытнанги,26.3,66.6592841,66.3883009,Тюменская область,Уральский
Лангепас,44.6,61.2536939,75.1807763,Тюменская область,Уральский
Лянтор,41.2,61.6392863,72.179409,Тюменская область,Уральский
Мегион,46.6,61.0318712,76.1025878,Тюменская область,Уральский
Муравленко,31.6,63.7940552,74.4948635,Тюменская область,Уральский
Надым,44.8,65.5377966,72.5182736,Тюменская область,Уральский
Нефтеюганск,127.3,61.0882676,72.6164079,Тюменская область,Уральский
Нижневартовск,277.7,60.9396698,76.5696184,Тюменская область,Уральский
Новый Уренгой,118.0,66.0839433,76.6809681,Тюменская область,Уральский
Ноябрьск,106.9,63.2018039,75.4510581,Тюменская область,Уральский
Нягань,58.6,62.1454701,65.3946047,Тюменская область,Уральский
Покачи,18.1,61.7422169,75.5941517,Тюменская область,Уральский
Пыть-Ях,39.6,60.7585833,72.8365617,Тюменская область,Уральский
Радужный,43.7,62.1342888,77.4584094,Тюменская область,Уральский
Салехард,51.0,66.5492077,66.6085318,Тюменская область,Уральский
Советский,29.3,61.3706913,63.5667222,Тюменская область,Уральский
Сургут,380.6,61.2541083,73.3961587,Тюменская область,Уральский
Тарко-Сале,21.5,64.9118803,77.7610236,Тюменская область,Уральский
Тобольск,98.9,58.2017299,68.2538558,Тюменская область,Уральский
Тюмень,807.3,57.1529744,65.5344099,Тюменская область,Уральский
Урай,40.5,60.1296954,64.8038508,Тюменская область,Уральский
Ханты-Мансийск,101.5,61.0023984,69.0184798,Тюменская область,Уральский
Югорск,38.0,61.3123568,63.3365484,Тюменская область,Уральский
Ялуторовск,40.3,56.6547289,66.3122992,Тюменская область,Уральский
Воткинск,97.2,57.0518149,53.9873096,Удмуртская Республика,Приволжский
Глазов,92.3,58.1359233,52.6635038,Удмуртская Республика,Приволжский
Ижевск,648.1,56.852738,53.2114896,Удмуртская Республика,Приволжский
Камбарка,10.1,56.2659916,54.193374,Удмуртская Республика,Приволжский
Можга,49.0,56.4427774,52.2137886,Удмуртская Республика,Приволжский
Сарапул,95.4,56.4615767,53.8037657,Удмуртская Республика,Приволжский
Барыш,15.5,53.6533992,47.1181134,Ульяновская область,Приволжский
Димитровград,113.5,54.2167926,49.6262585,Ульяновская область,Приволжский
Инза,17.2,53.8549647,46.3533459,Ульяновская область,Приволжский
Новоульяновск,13.8,54.1447956,48.3910789,Ульяновская область,Приволжский
Сенгилей,6.2,53.958964,48.7768269,Ульяновская область,Приволжский
Ульяновск,627.7,54.3079415,48.3748487,Ульяновская область,Приволжский
Амурск,38.9,50.2344147,136.8792444,Хабаровский край,Дальневосточный
Бикин,16.1,46.8185743,134.2550718,Хабаровский край,Дальневосточный
Вяземский,13.0,47.5353379,134.7553856,Хабаровский край,Дальневосточный
Комсомольск-на-Амуре,244.8,50.5498936,137.0079408,Хабаровский край,Дальневосточный
Николаевск-на-Амуре,17.9,53.1460657,140.7111367,Хабаровский край,Дальневосточный
Советская Гавань,23.6,48.9664966,140.285174,Хабаровский край,Дальневосточный
Хабаровск,616.4,48.4647258,135.0598942,Хабаровский край,Дальневосточный
Аша,29.1,54.9906527,57.2783953,Челябинская область,Уральский
Бакал,18.7,54.9406399,58.8051698,Челябинская область,Уральский
Верхнеуральск,9.3,53.8760961,59.2169852,Челябинская область,Уральский
Верхний Уфалей,26.7,56.0487158,60.2318886,Челябинская область,Уральский
Еманжелинск,28.2,54.7554548,61.3243477,Челябинская область,Уральский
Златоуст,163.9,55.1714905,59.6725549,Челябинская область,Уральский
Карабаш,10.8,55.4852323,60.2358881,Челябинская область,Уральский
Карталы,28.2,53.0536197,60.6478408,Челябинская область,Уральский
Касли,15.7,55.8868784,60.7421663,Челябинская область,Уральский
Катав-Ивановск,15.5,54.7521438,58.1983648,Челябинская область,Уральский
Копейск,147.6,55.116665,61.6179185,Челябинская область,Уральский
Коркино,34.0,54.8903147,61.4034576,Челябинская область,Уральский
Куса,16.7,55.3386053,59.4385778,Челябинская область,Уральский
Кыштым,36.2,55.7061276,60.5563781,Челябинская область,Уральский
Магнитогорск,413.3,53.4072153,58.9791437,Челябинская область,Уральский
Миасс,151.5,55.0456457,60.1077572,Челябинская область,Уральский
Миньяр,8.9,55.0709557,57.548478,Челябинская область,Уральский
Нязепетровск,11.4,56.0536895,59.6097202,Челябинская область,Уральский
Озерск,78.4,55.763154,60.7076198,Челябинская область,Уральский
Пласт,17.3,54.3692764,60.8151894,Челябинская область,Уральский
Сатка,41.3,55.0405288,59.0288975,Челябинская область,Уральский
Сим,12.5,54.9907827,57.6900155,Челябинская область,Уральский
Снежинск,51.8,56.0851495,60.7324914,Челябинская область,Уральский
Трехгорный,32.7,54.8178249,58.4464194,Челябинская область,Уральский
Троицк,73.4,54.0843745,61.5586831,Челябинская область,Уральский
Усть-Катав,21.8,54.9260812,58.152805,Челябинская область,Уральский
Чебаркуль,41.3,54.9818567,60.3773121,Челябинская область,Уральский
Челябинск,1196.7,55.1602624,61.4008078,Челябинская область,Уральский
Южноуральск,37.6,54.448927,61.2581158,Челябинская область,Уральский
Юрюзань,10.9,54.854662,58.4226698,Челябинская область,Уральский
Аргун,39.3,43.2916774,45.8723105,Чеченская Республика,Северо-Кавказский
Грозный,305.9,43.3180145,45.698291,Чеченская Республика,Северо-Кавказский
Гудермес,55.9,43.3519142,46.1035645,Чеченская Республика,Северо-Кавказский
Курчалой,26.6,43.2046547,46.0889364,Чеченская Республика,Северо-Кавказский
Урус-Мартан,62.7,43.120175,45.539276,Чеченская Республика,Северо-Кавказский
Шали,55.1,43.1488691,45.9009629,Чеченская Республика,Северо-Кавказский
Алатырь,33.8,54.8397989,46.5721997,Чувашская Республика,Приволжский
Канаш,44.8,55.507,47.4918273,Чувашская Республика,Приволжский
Козловка,8.6,55.8406025,48.2577735,Чувашская Республика,Приволжский
Мариинский Посад,8.5,56.111923,47.7142942,Чувашская Республика,Приволжский
Новочебоксарск,127.2,56.1094977,47.4791113,Чувашская Республика,Приволжский
Цивильск,15.0,55.8650213,47.4729349,Чувашская Республика,Приволжский
Чебоксары,497.6,56.1438298,47.2489782,Чувашская Республика,Приволжский
Шумерля,28.4,55.4962415,46.4182681,Чувашская Республика,Приволжский
Ядрин,8.2,55.9406974,46.2020896,Чувашская Республика,Приволжский
Анадырь,15.8,64.7313924,177.5015421,Чукотский автономный округ,Дальневосточный
Билибино,5.5,68.0584191,166.4388172,Чукотский автономный округ,Дальневосточный
Певек,4.5,69.7016661,170.2999022,Чукотский автономный округ,Дальневосточный
Гаврилов-Ям,16.5,57.3091058,39.8546444,Ярославская область,Центральный
Данилов,14.5,58.1860098,40.1795067,Ярославская область,Центральный
Любим,5.0,58.3620228,40.686841,Ярославская область,Центральный
Мышкин,5.5,57.7881684,38.4544224,Ярославская область,Центральный
Переславль-Залесский,37.9,56.7360544,38.8543617,Ярославская область,Центральный
Пошехонье,5.7,58.5062879,39.1208434,Ярославская область,Центральный
Ростов,30.5,57.2051315,39.4378622,Ярославская область,Центральный
Рыбинск,184.6,58.0485495,38.8584119,Ярославская область,Центральный
Тутаев,39.8,57.8674993,39.5369627,Ярославская область,Центральный
Углич,31.8,57.5224249,38.3020044,Ярославская область,Центральный
Ярославль,608.4,57.6215477,39.8977411,Ярославская область,Центральный
